name,lat,lon,website
Belfast International Airport,54.656203,-6.216863,http://www.belfastairport.com/
George Best Belfast City Airport,54.617628,-5.871894,https://www.belfastcityairport.com/
City of Derry Airport,55.039687,-7.155833,https://www.cityofderryairport.com/
Enniskillen/St Angelo Airport,54.398611,-7.651944,http://www.enniskillen-airport.co.uk/
Newtownards Airport,54.581111,-5.691944,https://ulsterflyingclub.com/